<?xml version="1.0" encoding="UTF-8"?>
<GeocodeResponse>
 <status>OK</status>
 <result>
  <type>street_address</type>
  <formatted_address>79 Quai des Tuileries, 75001 Paris, 法國</formatted_address>
  <address_component>
   <long_name>79</long_name>
   <short_name>79</short_name>
   <type>street_number</type>
  </address_component>
  <address_component>
   <long_name>Quai des Tuileries</long_name>
   <short_name>Quai des Tuileries</short_name>
   <type>route</type>
  </address_component>
  <address_component>
   <long_name>Paris</long_name>
   <short_name>Paris</short_name>
   <type>locality</type>
   <type>political</type>
  </address_component>
  <address_component>
   <long_name>Paris</long_name>
   <short_name>Paris</short_name>
   <type>administrative_area_level_2</type>
   <type>political</type>
  </address_component>
  <address_component>
   <long_name>Île-de-France</long_name>
   <short_name>Île-de-France</short_name>
   <type>administrative_area_level_1</type>
   <type>political</type>
  </address_component>
  <address_component>
   <long_name>法國</long_name>
   <short_name>FR</short_name>
   <type>country</type>
   <type>political</type>
  </address_component>
  <address_component>
   <long_name>75001</long_name>
   <short_name>75001</short_name>
   <type>postal_code</type>
  </address_component>
  <geometry>
   <location>
    <lat>48.8589020</lat>
    <lng>2.3388012</lng>
   </location>
   <location_type>ROOFTOP</location_type>
   <viewport>
    <southwest>
     <lat>48.8575530</lat>
     <lng>2.3374522</lng>
    </southwest>
    <northeast>
     <lat>48.8602510</lat>
     <lng>2.3401502</lng>
    </northeast>
   </viewport>
  </geometry>
  <place_id>ChIJVZWS1SZu5kcRmK0x1NkHKIA</place_id>
 </result>
 <result>
  <type>neighborhood</type>
  <type>political</type>
  <formatted_address>Saint-Germain-l'Auxerrois, Paris, 法國</formatted_address>
  <address_component>
   <long_name>Saint-Germain-l'Auxerrois</long_name>
   <short_name>Saint-Germain-l'Auxerrois</short_name>
   <type>neighborhood</type>
   <type>political</type>
  </address_component>
  <address_component>
   <long_name>巴黎第一區</long_name>
   <short_name>巴黎第一區</short_name>
   <type>political</type>
   <type>sublocality</type>
   <type>sublocality_level_1</type>
  </address_component>
  <address_component>
   <long_name>Paris</long_name>
   <short_name>Paris</short_name>
   <type>locality</type>
   <type>political</type>
  </address_component>
  <address_component>
   <long_name>Paris</long_name>
   <short_name>Paris</short_name>
   <type>administrative_area_level_2</type>
   <type>political</type>
  </address_component>
  <address_component>
   <long_name>Île-de-France</long_name>
   <short_name>Île-de-France</short_name>
   <type>administrative_area_level_1</type>
   <type>political</type>
  </address_component>
  <address_component>
   <long_name>法國</long_name>
   <short_name>FR</short_name>
   <type>country</type>
   <type>political</type>
  </address_component>
  <geometry>
   <location>
    <lat>48.8617611</lat>
    <lng>2.3327880</lng>
   </location>
   <location_type>APPROXIMATE</location_type>
   <viewport>
    <southwest>
     <lat>48.8537021</lat>
     <lng>2.3191960</lng>
    </southwest>
    <northeast>
     <lat>48.8665660</lat>
     <lng>2.3481470</lng>
    </northeast>
   </viewport>
   <bounds>
    <southwest>
     <lat>48.8537021</lat>
     <lng>2.3191960</lng>
    </southwest>
    <northeast>
     <lat>48.8665660</lat>
     <lng>2.3481470</lng>
    </northeast>
   </bounds>
  </geometry>
  <place_id>ChIJVbPGPyZu5kcRowB3csohtWw</place_id>
 </result>
 <result>
  <type>political</type>
  <type>sublocality</type>
  <type>sublocality_level_1</type>
  <formatted_address>法國巴黎巴黎第一區邮政编码: 75001</formatted_address>
  <address_component>
   <long_name>巴黎第一區</long_name>
   <short_name>巴黎第一區</short_name>
   <type>political</type>
   <type>sublocality</type>
   <type>sublocality_level_1</type>
  </address_component>
  <address_component>
   <long_name>巴黎</long_name>
   <short_name>巴黎</short_name>
   <type>locality</type>
   <type>political</type>
  </address_component>
  <address_component>
   <long_name>巴黎</long_name>
   <short_name>巴黎</short_name>
   <type>administrative_area_level_2</type>
   <type>political</type>
  </address_component>
  <address_component>
   <long_name>法蘭西島</long_name>
   <short_name>法蘭西島</short_name>
   <type>administrative_area_level_1</type>
   <type>political</type>
  </address_component>
  <address_component>
   <long_name>法國</long_name>
   <short_name>FR</short_name>
   <type>country</type>
   <type>political</type>
  </address_component>
  <address_component>
   <long_name>75001</long_name>
   <short_name>75001</short_name>
   <type>postal_code</type>
  </address_component>
  <geometry>
   <location>
    <lat>48.8640493</lat>
    <lng>2.3310526</lng>
   </location>
   <location_type>APPROXIMATE</location_type>
   <viewport>
    <southwest>
     <lat>48.8540860</lat>
     <lng>2.3209150</lng>
    </southwest>
    <northeast>
     <lat>48.8699110</lat>
     <lng>2.3509280</lng>
    </northeast>
   </viewport>
   <bounds>
    <southwest>
     <lat>48.8540860</lat>
     <lng>2.3209150</lng>
    </southwest>
    <northeast>
     <lat>48.8699110</lat>
     <lng>2.3509280</lng>
    </northeast>
   </bounds>
  </geometry>
  <place_id>ChIJPStI0CVu5kcRUBqUaMOCCwU</place_id>
 </result>
 <result>
  <type>locality</type>
  <type>political</type>
  <formatted_address>法國巴黎</formatted_address>
  <address_component>
   <long_name>巴黎</long_name>
   <short_name>巴黎</short_name>
   <type>locality</type>
   <type>political</type>
  </address_component>
  <address_component>
   <long_name>巴黎</long_name>
   <short_name>巴黎</short_name>
   <type>administrative_area_level_2</type>
   <type>political</type>
  </address_component>
  <address_component>
   <long_name>法蘭西島</long_name>
   <short_name>法蘭西島</short_name>
   <type>administrative_area_level_1</type>
   <type>political</type>
  </address_component>
  <address_component>
   <long_name>法國</long_name>
   <short_name>FR</short_name>
   <type>country</type>
   <type>political</type>
  </address_component>
  <geometry>
   <location>
    <lat>48.8566140</lat>
    <lng>2.3522219</lng>
   </location>
   <location_type>APPROXIMATE</location_type>
   <viewport>
    <southwest>
     <lat>48.8155730</lat>
     <lng>2.2251930</lng>
    </southwest>
    <northeast>
     <lat>48.9021449</lat>
     <lng>2.4699209</lng>
    </northeast>
   </viewport>
   <bounds>
    <southwest>
     <lat>48.8155730</lat>
     <lng>2.2251930</lng>
    </southwest>
    <northeast>
     <lat>48.9021449</lat>
     <lng>2.4699209</lng>
    </northeast>
   </bounds>
  </geometry>
  <place_id>ChIJD7fiBh9u5kcRYJSMaMOCCwQ</place_id>
 </result>
 <result>
  <type>postal_code</type>
  <formatted_address>法國巴黎邮政编码: 75001</formatted_address>
  <address_component>
   <long_name>75001</long_name>
   <short_name>75001</short_name>
   <type>postal_code</type>
  </address_component>
  <address_component>
   <long_name>巴黎</long_name>
   <short_name>巴黎</short_name>
   <type>locality</type>
   <type>political</type>
  </address_component>
  <address_component>
   <long_name>巴黎</long_name>
   <short_name>巴黎</short_name>
   <type>administrative_area_level_2</type>
   <type>political</type>
  </address_component>
  <address_component>
   <long_name>法蘭西島</long_name>
   <short_name>法蘭西島</short_name>
   <type>administrative_area_level_1</type>
   <type>political</type>
  </address_component>
  <address_component>
   <long_name>法國</long_name>
   <short_name>FR</short_name>
   <type>country</type>
   <type>political</type>
  </address_component>
  <geometry>
   <location>
    <lat>48.8640493</lat>
    <lng>2.3310526</lng>
   </location>
   <location_type>APPROXIMATE</location_type>
   <viewport>
    <southwest>
     <lat>48.8512919</lat>
     <lng>2.3209301</lng>
    </southwest>
    <northeast>
     <lat>48.8699090</lat>
     <lng>2.3532054</lng>
    </northeast>
   </viewport>
   <bounds>
    <southwest>
     <lat>48.8512919</lat>
     <lng>2.3209301</lng>
    </southwest>
    <northeast>
     <lat>48.8699090</lat>
     <lng>2.3532054</lng>
    </northeast>
   </bounds>
  </geometry>
  <place_id>ChIJPStI0CVu5kcRAFHY4caCCxw</place_id>
 </result>
 <result>
  <type>administrative_area_level_2</type>
  <type>political</type>
  <formatted_address>法國巴黎</formatted_address>
  <address_component>
   <long_name>巴黎</long_name>
   <short_name>巴黎</short_name>
   <type>administrative_area_level_2</type>
   <type>political</type>
  </address_component>
  <address_component>
   <long_name>法蘭西島</long_name>
   <short_name>法蘭西島</short_name>
   <type>administrative_area_level_1</type>
   <type>political</type>
  </address_component>
  <address_component>
   <long_name>法國</long_name>
   <short_name>FR</short_name>
   <type>country</type>
   <type>political</type>
  </address_component>
  <geometry>
   <location>
    <lat>48.8565823</lat>
    <lng>2.3522148</lng>
   </location>
   <location_type>APPROXIMATE</location_type>
   <viewport>
    <southwest>
     <lat>48.8155730</lat>
     <lng>2.2251930</lng>
    </southwest>
    <northeast>
     <lat>48.9021449</lat>
     <lng>2.4699209</lng>
    </northeast>
   </viewport>
   <bounds>
    <southwest>
     <lat>48.8155730</lat>
     <lng>2.2251930</lng>
    </southwest>
    <northeast>
     <lat>48.9021449</lat>
     <lng>2.4699209</lng>
    </northeast>
   </bounds>
  </geometry>
  <place_id>ChIJD7fiBh9u5kcRMCqLaMOCCwM</place_id>
 </result>
 <result>
  <type>administrative_area_level_1</type>
  <type>political</type>
  <formatted_address>法國法蘭西島</formatted_address>
  <address_component>
   <long_name>法蘭西島</long_name>
   <short_name>法蘭西島</short_name>
   <type>administrative_area_level_1</type>
   <type>political</type>
  </address_component>
  <address_component>
   <long_name>法國</long_name>
   <short_name>FR</short_name>
   <type>country</type>
   <type>political</type>
  </address_component>
  <geometry>
   <location>
    <lat>48.8499198</lat>
    <lng>2.6370411</lng>
   </location>
   <location_type>APPROXIMATE</location_type>
   <viewport>
    <southwest>
     <lat>48.1200810</lat>
     <lng>1.4461701</lng>
    </southwest>
    <northeast>
     <lat>49.2415039</lat>
     <lng>3.5590070</lng>
    </northeast>
   </viewport>
   <bounds>
    <southwest>
     <lat>48.1200810</lat>
     <lng>1.4461701</lng>
    </southwest>
    <northeast>
     <lat>49.2415039</lat>
     <lng>3.5590070</lng>
    </northeast>
   </bounds>
  </geometry>
  <place_id>ChIJF4ymA8Th5UcRcCWLaMOCCwE</place_id>
 </result>
 <result>
  <type>country</type>
  <type>political</type>
  <formatted_address>法國</formatted_address>
  <address_component>
   <long_name>法國</long_name>
   <short_name>FR</short_name>
   <type>country</type>
   <type>political</type>
  </address_component>
  <geometry>
   <location>
    <lat>46.2276380</lat>
    <lng>2.2137490</lng>
   </location>
   <location_type>APPROXIMATE</location_type>
   <viewport>
    <southwest>
     <lat>41.3423275</lat>
     <lng>-5.1421418</lng>
    </southwest>
    <northeast>
     <lat>51.0891285</lat>
     <lng>9.5597934</lng>
    </northeast>
   </viewport>
   <bounds>
    <southwest>
     <lat>41.3423275</lat>
     <lng>-5.1423075</lng>
    </southwest>
    <northeast>
     <lat>51.0891285</lat>
     <lng>9.5600677</lng>
    </northeast>
   </bounds>
  </geometry>
  <place_id>ChIJMVd4MymgVA0R99lHx5Y__Ws</place_id>
 </result>
</GeocodeResponse>
