<?xml version="1.0" encoding="UTF-8"?>
<GeocodeResponse>
 <status>OK</status>
 <result>
  <type>political</type>
  <type>sublocality</type>
  <type>sublocality_level_4</type>
  <formatted_address>2 Chome-11-25 Aobadai, Meguro-ku, Tōkyō-to 153-0042日本</formatted_address>
  <address_component>
   <long_name>25</long_name>
   <short_name>25</short_name>
   <type>political</type>
   <type>sublocality</type>
   <type>sublocality_level_4</type>
  </address_component>
  <address_component>
   <long_name>11</long_name>
   <short_name>11</short_name>
   <type>political</type>
   <type>sublocality</type>
   <type>sublocality_level_3</type>
  </address_component>
  <address_component>
   <long_name>2 Chome</long_name>
   <short_name>2 Chome</short_name>
   <type>political</type>
   <type>sublocality</type>
   <type>sublocality_level_2</type>
  </address_component>
  <address_component>
   <long_name>Aobadai</long_name>
   <short_name>Aobadai</short_name>
   <type>political</type>
   <type>sublocality</type>
   <type>sublocality_level_1</type>
  </address_component>
  <address_component>
   <long_name>Meguro-ku</long_name>
   <short_name>Meguro-ku</short_name>
   <type>locality</type>
   <type>political</type>
  </address_component>
  <address_component>
   <long_name>Tōkyō-to</long_name>
   <short_name>Tōkyō-to</short_name>
   <type>administrative_area_level_1</type>
   <type>political</type>
  </address_component>
  <address_component>
   <long_name>日本</long_name>
   <short_name>JP</short_name>
   <type>country</type>
   <type>political</type>
  </address_component>
  <address_component>
   <long_name>153-0042</long_name>
   <short_name>153-0042</short_name>
   <type>postal_code</type>
  </address_component>
  <geometry>
   <location>
    <lat>35.6503117</lat>
    <lng>139.6931047</lng>
   </location>
   <location_type>ROOFTOP</location_type>
   <viewport>
    <southwest>
     <lat>35.6489627</lat>
     <lng>139.6917557</lng>
    </southwest>
    <northeast>
     <lat>35.6516607</lat>
     <lng>139.6944537</lng>
    </northeast>
   </viewport>
  </geometry>
  <place_id>ChIJc5s4BVOLGGAR1OOk4nCL3BM</place_id>
 </result>
 <result>
  <type>political</type>
  <type>sublocality</type>
  <type>sublocality_level_3</type>
  <formatted_address>2 Chome-11 Aobadai, Meguro-ku, Tōkyō-to 153-0042日本</formatted_address>
  <address_component>
   <long_name>11</long_name>
   <short_name>11</short_name>
   <type>political</type>
   <type>sublocality</type>
   <type>sublocality_level_3</type>
  </address_component>
  <address_component>
   <long_name>2 Chome</long_name>
   <short_name>2 Chome</short_name>
   <type>political</type>
   <type>sublocality</type>
   <type>sublocality_level_2</type>
  </address_component>
  <address_component>
   <long_name>Aobadai</long_name>
   <short_name>Aobadai</short_name>
   <type>political</type>
   <type>sublocality</type>
   <type>sublocality_level_1</type>
  </address_component>
  <address_component>
   <long_name>Meguro-ku</long_name>
   <short_name>Meguro-ku</short_name>
   <type>locality</type>
   <type>political</type>
  </address_component>
  <address_component>
   <long_name>Tōkyō-to</long_name>
   <short_name>Tōkyō-to</short_name>
   <type>administrative_area_level_1</type>
   <type>political</type>
  </address_component>
  <address_component>
   <long_name>日本</long_name>
   <short_name>JP</short_name>
   <type>country</type>
   <type>political</type>
  </address_component>
  <address_component>
   <long_name>153-0042</long_name>
   <short_name>153-0042</short_name>
   <type>postal_code</type>
  </address_component>
  <geometry>
   <location>
    <lat>35.6503284</lat>
    <lng>139.6944629</lng>
   </location>
   <location_type>APPROXIMATE</location_type>
   <viewport>
    <southwest>
     <lat>35.6488684</lat>
     <lng>139.6925770</lng>
    </southwest>
    <northeast>
     <lat>35.6515664</lat>
     <lng>139.6952750</lng>
    </northeast>
   </viewport>
   <bounds>
    <southwest>
     <lat>35.6495264</lat>
     <lng>139.6927628</lng>
    </southwest>
    <northeast>
     <lat>35.6509084</lat>
     <lng>139.6950892</lng>
    </northeast>
   </bounds>
  </geometry>
  <place_id>ChIJkzgVq1OLGGARfmKDe_qFTik</place_id>
 </result>
 <result>
  <type>political</type>
  <type>sublocality</type>
  <type>sublocality_level_2</type>
  <formatted_address>2 Chome Aobadai, Meguro-ku, Tōkyō-to 153-0042日本</formatted_address>
  <address_component>
   <long_name>2 Chome</long_name>
   <short_name>2 Chome</short_name>
   <type>political</type>
   <type>sublocality</type>
   <type>sublocality_level_2</type>
  </address_component>
  <address_component>
   <long_name>Aobadai</long_name>
   <short_name>Aobadai</short_name>
   <type>political</type>
   <type>sublocality</type>
   <type>sublocality_level_1</type>
  </address_component>
  <address_component>
   <long_name>Meguro-ku</long_name>
   <short_name>Meguro-ku</short_name>
   <type>locality</type>
   <type>political</type>
  </address_component>
  <address_component>
   <long_name>Tōkyō-to</long_name>
   <short_name>Tōkyō-to</short_name>
   <type>administrative_area_level_1</type>
   <type>political</type>
  </address_component>
  <address_component>
   <long_name>日本</long_name>
   <short_name>JP</short_name>
   <type>country</type>
   <type>political</type>
  </address_component>
  <address_component>
   <long_name>153-0042</long_name>
   <short_name>153-0042</short_name>
   <type>postal_code</type>
  </address_component>
  <geometry>
   <location>
    <lat>35.6490425</lat>
    <lng>139.6949101</lng>
   </location>
   <location_type>APPROXIMATE</location_type>
   <viewport>
    <southwest>
     <lat>35.6477259</lat>
     <lng>139.6921859</lng>
    </southwest>
    <northeast>
     <lat>35.6533178</lat>
     <lng>139.6968105</lng>
    </northeast>
   </viewport>
   <bounds>
    <southwest>
     <lat>35.6477259</lat>
     <lng>139.6921859</lng>
    </southwest>
    <northeast>
     <lat>35.6533178</lat>
     <lng>139.6968105</lng>
    </northeast>
   </bounds>
  </geometry>
  <place_id>ChIJZ1aqs1OLGGARtrsCW0mbWgY</place_id>
 </result>
 <result>
  <type>political</type>
  <type>sublocality</type>
  <type>sublocality_level_1</type>
  <formatted_address>Aobadai, Meguro, Tokyo 153-0042日本</formatted_address>
  <address_component>
   <long_name>Aobadai</long_name>
   <short_name>Aobadai</short_name>
   <type>political</type>
   <type>sublocality</type>
   <type>sublocality_level_1</type>
  </address_component>
  <address_component>
   <long_name>Meguro</long_name>
   <short_name>Meguro</short_name>
   <type>locality</type>
   <type>political</type>
  </address_component>
  <address_component>
   <long_name>Tokyo</long_name>
   <short_name>Tokyo</short_name>
   <type>administrative_area_level_1</type>
   <type>political</type>
  </address_component>
  <address_component>
   <long_name>日本</long_name>
   <short_name>JP</short_name>
   <type>country</type>
   <type>political</type>
  </address_component>
  <address_component>
   <long_name>153-0042</long_name>
   <short_name>153-0042</short_name>
   <type>postal_code</type>
  </address_component>
  <geometry>
   <location>
    <lat>35.6476121</lat>
    <lng>139.6971322</lng>
   </location>
   <location_type>APPROXIMATE</location_type>
   <viewport>
    <southwest>
     <lat>35.6456569</lat>
     <lng>139.6893995</lng>
    </southwest>
    <northeast>
     <lat>35.6567942</lat>
     <lng>139.7013416</lng>
    </northeast>
   </viewport>
   <bounds>
    <southwest>
     <lat>35.6456569</lat>
     <lng>139.6893995</lng>
    </southwest>
    <northeast>
     <lat>35.6567942</lat>
     <lng>139.7013416</lng>
    </northeast>
   </bounds>
  </geometry>
  <place_id>ChIJo_Jqz1OLGGARTiRSUlr0FNE</place_id>
 </result>
 <result>
  <type>locality</type>
  <type>political</type>
  <formatted_address>日本東京都目黑區</formatted_address>
  <address_component>
   <long_name>目黑區</long_name>
   <short_name>目黑區</short_name>
   <type>locality</type>
   <type>political</type>
  </address_component>
  <address_component>
   <long_name>東京都</long_name>
   <short_name>東京都</short_name>
   <type>administrative_area_level_1</type>
   <type>political</type>
  </address_component>
  <address_component>
   <long_name>日本</long_name>
   <short_name>JP</short_name>
   <type>country</type>
   <type>political</type>
  </address_component>
  <geometry>
   <location>
    <lat>35.6414629</lat>
    <lng>139.6981712</lng>
   </location>
   <location_type>APPROXIMATE</location_type>
   <viewport>
    <southwest>
     <lat>35.6005785</lat>
     <lng>139.6616067</lng>
    </southwest>
    <northeast>
     <lat>35.6641438</lat>
     <lng>139.7177386</lng>
    </northeast>
   </viewport>
   <bounds>
    <southwest>
     <lat>35.6005785</lat>
     <lng>139.6616067</lng>
    </southwest>
    <northeast>
     <lat>35.6641438</lat>
     <lng>139.7177386</lng>
    </northeast>
   </bounds>
  </geometry>
  <place_id>ChIJ8TUonsz0GGARcxiwpBmNByg</place_id>
 </result>
 <result>
  <type>colloquial_area</type>
  <type>locality</type>
  <type>political</type>
  <formatted_address>Tokyo, 日本</formatted_address>
  <address_component>
   <long_name>Tokyo</long_name>
   <short_name>Tokyo</short_name>
   <type>colloquial_area</type>
   <type>locality</type>
   <type>political</type>
  </address_component>
  <address_component>
   <long_name>Tokyo</long_name>
   <short_name>Tokyo</short_name>
   <type>administrative_area_level_1</type>
   <type>political</type>
  </address_component>
  <address_component>
   <long_name>日本</long_name>
   <short_name>JP</short_name>
   <type>country</type>
   <type>political</type>
  </address_component>
  <geometry>
   <location>
    <lat>35.7090259</lat>
    <lng>139.7319925</lng>
   </location>
   <location_type>APPROXIMATE</location_type>
   <viewport>
    <southwest>
     <lat>35.5208632</lat>
     <lng>139.5629047</lng>
    </southwest>
    <northeast>
     <lat>35.8175167</lat>
     <lng>139.9198565</lng>
    </northeast>
   </viewport>
   <bounds>
    <southwest>
     <lat>35.5208632</lat>
     <lng>139.5629047</lng>
    </southwest>
    <northeast>
     <lat>35.8175167</lat>
     <lng>139.9198565</lng>
    </northeast>
   </bounds>
  </geometry>
  <place_id>ChIJXSModoWLGGARILWiCfeu2M0</place_id>
 </result>
 <result>
  <type>postal_code</type>
  <formatted_address>153-0042日本</formatted_address>
  <address_component>
   <long_name>153-0042</long_name>
   <short_name>153-0042</short_name>
   <type>postal_code</type>
  </address_component>
  <address_component>
   <long_name>Aobadai</long_name>
   <short_name>Aobadai</short_name>
   <type>political</type>
   <type>sublocality</type>
   <type>sublocality_level_1</type>
  </address_component>
  <address_component>
   <long_name>Meguro</long_name>
   <short_name>Meguro</short_name>
   <type>locality</type>
   <type>political</type>
  </address_component>
  <address_component>
   <long_name>Tokyo</long_name>
   <short_name>Tokyo</short_name>
   <type>administrative_area_level_1</type>
   <type>political</type>
  </address_component>
  <address_component>
   <long_name>日本</long_name>
   <short_name>JP</short_name>
   <type>country</type>
   <type>political</type>
  </address_component>
  <geometry>
   <location>
    <lat>35.6508763</lat>
    <lng>139.6943282</lng>
   </location>
   <location_type>APPROXIMATE</location_type>
   <viewport>
    <southwest>
     <lat>35.6456569</lat>
     <lng>139.6893964</lng>
    </southwest>
    <northeast>
     <lat>35.6567942</lat>
     <lng>139.7013443</lng>
    </northeast>
   </viewport>
   <bounds>
    <southwest>
     <lat>35.6456569</lat>
     <lng>139.6893964</lng>
    </southwest>
    <northeast>
     <lat>35.6567942</lat>
     <lng>139.7013443</lng>
    </northeast>
   </bounds>
  </geometry>
  <place_id>ChIJ35dXaU6LGGAR0FlZLnnI6Oo</place_id>
 </result>
 <result>
  <type>administrative_area_level_1</type>
  <type>political</type>
  <formatted_address>日本東京都</formatted_address>
  <address_component>
   <long_name>東京都</long_name>
   <short_name>東京都</short_name>
   <type>administrative_area_level_1</type>
   <type>political</type>
  </address_component>
  <address_component>
   <long_name>日本</long_name>
   <short_name>JP</short_name>
   <type>country</type>
   <type>political</type>
  </address_component>
  <geometry>
   <location>
    <lat>35.6894875</lat>
    <lng>139.6917064</lng>
   </location>
   <location_type>APPROXIMATE</location_type>
   <viewport>
    <southwest>
     <lat>35.5288730</lat>
     <lng>139.5105740</lng>
    </southwest>
    <northeast>
     <lat>35.8178130</lat>
     <lng>139.9102020</lng>
    </northeast>
   </viewport>
   <bounds>
    <southwest>
     <lat>24.2242344</lat>
     <lng>138.9427579</lng>
    </southwest>
    <northeast>
     <lat>35.8986469</lat>
     <lng>153.9875216</lng>
    </northeast>
   </bounds>
  </geometry>
  <place_id>ChIJ51cu8IcbXWARiRtXIothAS4</place_id>
 </result>
 <result>
  <type>political</type>
  <formatted_address>日本 Tokyo Metropolitan Area</formatted_address>
  <address_component>
   <long_name>Tokyo Metropolitan Area</long_name>
   <short_name>Tokyo Metropolitan Area</short_name>
   <type>political</type>
  </address_component>
  <address_component>
   <long_name>日本</long_name>
   <short_name>JP</short_name>
   <type>country</type>
   <type>political</type>
  </address_component>
  <geometry>
   <location>
    <lat>35.6635367</lat>
    <lng>139.5279996</lng>
   </location>
   <location_type>APPROXIMATE</location_type>
   <viewport>
    <southwest>
     <lat>35.1713203</lat>
     <lng>139.0478511</lng>
    </southwest>
    <northeast>
     <lat>36.1498139</lat>
     <lng>140.2267995</lng>
    </northeast>
   </viewport>
   <bounds>
    <southwest>
     <lat>35.1713203</lat>
     <lng>139.0478511</lng>
    </southwest>
    <northeast>
     <lat>36.1498139</lat>
     <lng>140.2267995</lng>
    </northeast>
   </bounds>
  </geometry>
  <place_id>ChIJe5yXM7eSGGARAnhb-wORrgI</place_id>
 </result>
 <result>
  <type>country</type>
  <type>political</type>
  <formatted_address>日本</formatted_address>
  <address_component>
   <long_name>日本</long_name>
   <short_name>JP</short_name>
   <type>country</type>
   <type>political</type>
  </address_component>
  <geometry>
   <location>
    <lat>36.2048240</lat>
    <lng>138.2529240</lng>
   </location>
   <location_type>APPROXIMATE</location_type>
   <viewport>
    <southwest>
     <lat>24.0477994</lat>
     <lng>122.9338302</lng>
    </southwest>
    <northeast>
     <lat>45.5227719</lat>
     <lng>145.8175503</lng>
    </northeast>
   </viewport>
   <bounds>
    <southwest>
     <lat>20.4219810</lat>
     <lng>122.9338302</lng>
    </southwest>
    <northeast>
     <lat>45.5227719</lat>
     <lng>153.9874305</lng>
    </northeast>
   </bounds>
  </geometry>
  <place_id>ChIJLxl_1w9OZzQRRFJmfNR1QvU</place_id>
 </result>
</GeocodeResponse>
