<?xml version="1.0" encoding="UTF-8"?>
<GeocodeResponse>
 <status>OK</status>
 <result>
  <type>route</type>
  <formatted_address>Walcott Ave, Mountain View, CA 94043美國</formatted_address>
  <address_component>
   <long_name>Walcott Avenue</long_name>
   <short_name>Walcott Ave</short_name>
   <type>route</type>
  </address_component>
  <address_component>
   <long_name>Mountain View</long_name>
   <short_name>Mountain View</short_name>
   <type>locality</type>
   <type>political</type>
  </address_component>
  <address_component>
   <long_name>Santa Clara County</long_name>
   <short_name>Santa Clara County</short_name>
   <type>administrative_area_level_2</type>
   <type>political</type>
  </address_component>
  <address_component>
   <long_name>California</long_name>
   <short_name>CA</short_name>
   <type>administrative_area_level_1</type>
   <type>political</type>
  </address_component>
  <address_component>
   <long_name>美國</long_name>
   <short_name>US</short_name>
   <type>country</type>
   <type>political</type>
  </address_component>
  <address_component>
   <long_name>94043</long_name>
   <short_name>94043</short_name>
   <type>postal_code</type>
  </address_component>
  <geometry>
   <location>
    <lat>37.4191395</lat>
    <lng>-122.0585256</lng>
   </location>
   <location_type>GEOMETRIC_CENTER</location_type>
   <viewport>
    <southwest>
     <lat>37.4177885</lat>
     <lng>-122.0598809</lng>
    </southwest>
    <northeast>
     <lat>37.4204865</lat>
     <lng>-122.0571829</lng>
    </northeast>
   </viewport>
   <bounds>
    <southwest>
     <lat>37.4186591</lat>
     <lng>-122.0587873</lng>
    </southwest>
    <northeast>
     <lat>37.4196159</lat>
     <lng>-122.0582765</lng>
    </northeast>
   </bounds>
  </geometry>
  <place_id>ChIJseEB3GC3j4ARu6QkhmorVN8</place_id>
 </result>
 <result>
  <type>postal_code</type>
  <formatted_address>美國加利福尼亞山景城邮政编码: 94043</formatted_address>
  <address_component>
   <long_name>94043</long_name>
   <short_name>94043</short_name>
   <type>postal_code</type>
  </address_component>
  <address_component>
   <long_name>山景城</long_name>
   <short_name>山景城</short_name>
   <type>locality</type>
   <type>political</type>
  </address_component>
  <address_component>
   <long_name>聖塔克拉拉郡</long_name>
   <short_name>聖塔克拉拉郡</short_name>
   <type>administrative_area_level_2</type>
   <type>political</type>
  </address_component>
  <address_component>
   <long_name>加利福尼亞</long_name>
   <short_name>CA</short_name>
   <type>administrative_area_level_1</type>
   <type>political</type>
  </address_component>
  <address_component>
   <long_name>美國</long_name>
   <short_name>US</short_name>
   <type>country</type>
   <type>political</type>
  </address_component>
  <geometry>
   <location>
    <lat>37.4284340</lat>
    <lng>-122.0723816</lng>
   </location>
   <location_type>APPROXIMATE</location_type>
   <viewport>
    <southwest>
     <lat>37.3857439</lat>
     <lng>-122.1084200</lng>
    </southwest>
    <northeast>
     <lat>37.4640869</lat>
     <lng>-122.0359899</lng>
    </northeast>
   </viewport>
   <bounds>
    <southwest>
     <lat>37.3857439</lat>
     <lng>-122.1084200</lng>
    </southwest>
    <northeast>
     <lat>37.4640869</lat>
     <lng>-122.0359899</lng>
    </northeast>
   </bounds>
  </geometry>
  <place_id>ChIJoQmen1G3j4ARbhoe7nVBEoQ</place_id>
 </result>
 <result>
  <type>administrative_area_level_2</type>
  <type>political</type>
  <formatted_address>美國加利福尼亞聖塔克拉拉郡</formatted_address>
  <address_component>
   <long_name>聖塔克拉拉郡</long_name>
   <short_name>聖塔克拉拉郡</short_name>
   <type>administrative_area_level_2</type>
   <type>political</type>
  </address_component>
  <address_component>
   <long_name>加利福尼亞</long_name>
   <short_name>CA</short_name>
   <type>administrative_area_level_1</type>
   <type>political</type>
  </address_component>
  <address_component>
   <long_name>美國</long_name>
   <short_name>US</short_name>
   <type>country</type>
   <type>political</type>
  </address_component>
  <geometry>
   <location>
    <lat>37.3336581</lat>
    <lng>-121.8907041</lng>
   </location>
   <location_type>APPROXIMATE</location_type>
   <viewport>
    <southwest>
     <lat>36.8941549</lat>
     <lng>-122.2024760</lng>
    </southwest>
    <northeast>
     <lat>37.4846370</lat>
     <lng>-121.2081780</lng>
    </northeast>
   </viewport>
   <bounds>
    <southwest>
     <lat>36.8941549</lat>
     <lng>-122.2024760</lng>
    </southwest>
    <northeast>
     <lat>37.4846370</lat>
     <lng>-121.2081780</lng>
    </northeast>
   </bounds>
  </geometry>
  <place_id>ChIJd_Y0eVIvkIARuQyDN0F1LBA</place_id>
 </result>
 <result>
  <type>political</type>
  <formatted_address>San Jose-Sunnyvale-Santa Clara, CA, CA, 美國</formatted_address>
  <address_component>
   <long_name>San Jose-Sunnyvale-Santa Clara, CA</long_name>
   <short_name>San Jose-Sunnyvale-Santa Clara, CA</short_name>
   <type>political</type>
  </address_component>
  <address_component>
   <long_name>California</long_name>
   <short_name>CA</short_name>
   <type>administrative_area_level_1</type>
   <type>political</type>
  </address_component>
  <address_component>
   <long_name>美國</long_name>
   <short_name>US</short_name>
   <type>country</type>
   <type>political</type>
  </address_component>
  <geometry>
   <location>
    <lat>36.9374556</lat>
    <lng>-121.3541631</lng>
   </location>
   <location_type>APPROXIMATE</location_type>
   <viewport>
    <southwest>
     <lat>36.1966779</lat>
     <lng>-122.2024760</lng>
    </southwest>
    <northeast>
     <lat>37.4846370</lat>
     <lng>-120.5965620</lng>
    </northeast>
   </viewport>
   <bounds>
    <southwest>
     <lat>36.1966779</lat>
     <lng>-122.2024760</lng>
    </southwest>
    <northeast>
     <lat>37.4846370</lat>
     <lng>-120.5965620</lng>
    </northeast>
   </bounds>
  </geometry>
  <place_id>ChIJIXSLWpT2kYARL6cxUG2ODDQ</place_id>
 </result>
 <result>
  <type>political</type>
  <formatted_address>San Jose Metropolitan Area, CA, 美國</formatted_address>
  <address_component>
   <long_name>San Jose Metropolitan Area</long_name>
   <short_name>San Jose Metropolitan Area</short_name>
   <type>political</type>
  </address_component>
  <address_component>
   <long_name>California</long_name>
   <short_name>CA</short_name>
   <type>administrative_area_level_1</type>
   <type>political</type>
  </address_component>
  <address_component>
   <long_name>美國</long_name>
   <short_name>US</short_name>
   <type>country</type>
   <type>political</type>
  </address_component>
  <geometry>
   <location>
    <lat>36.9374556</lat>
    <lng>-121.3541631</lng>
   </location>
   <location_type>APPROXIMATE</location_type>
   <viewport>
    <southwest>
     <lat>36.1968479</lat>
     <lng>-122.2024760</lng>
    </southwest>
    <northeast>
     <lat>37.4846370</lat>
     <lng>-120.5965620</lng>
    </northeast>
   </viewport>
   <bounds>
    <southwest>
     <lat>36.1968479</lat>
     <lng>-122.2024760</lng>
    </southwest>
    <northeast>
     <lat>37.4846370</lat>
     <lng>-120.5965620</lng>
    </northeast>
   </bounds>
  </geometry>
  <place_id>ChIJxwGuDoIdkoARElHtPW132v0</place_id>
 </result>
 <result>
  <type>administrative_area_level_1</type>
  <type>establishment</type>
  <type>point_of_interest</type>
  <type>political</type>
  <formatted_address>美國加利福尼亞</formatted_address>
  <address_component>
   <long_name>加利福尼亞</long_name>
   <short_name>CA</short_name>
   <type>administrative_area_level_1</type>
   <type>establishment</type>
   <type>point_of_interest</type>
   <type>political</type>
  </address_component>
  <address_component>
   <long_name>美國</long_name>
   <short_name>US</short_name>
   <type>country</type>
   <type>political</type>
  </address_component>
  <geometry>
   <location>
    <lat>36.7782610</lat>
    <lng>-119.4179324</lng>
   </location>
   <location_type>APPROXIMATE</location_type>
   <viewport>
    <southwest>
     <lat>32.5342852</lat>
     <lng>-124.4151821</lng>
    </southwest>
    <northeast>
     <lat>42.0093780</lat>
     <lng>-114.1312110</lng>
    </northeast>
   </viewport>
   <bounds>
    <southwest>
     <lat>32.5288320</lat>
     <lng>-124.4820030</lng>
    </southwest>
    <northeast>
     <lat>42.0095169</lat>
     <lng>-114.1312110</lng>
    </northeast>
   </bounds>
  </geometry>
  <place_id>ChIJPV4oX_65j4ARVW8IJ6IJUYs</place_id>
 </result>
 <result>
  <type>country</type>
  <type>political</type>
  <formatted_address>美國</formatted_address>
  <address_component>
   <long_name>美國</long_name>
   <short_name>US</short_name>
   <type>country</type>
   <type>political</type>
  </address_component>
  <geometry>
   <location>
    <lat>37.0902400</lat>
    <lng>-95.7128910</lng>
   </location>
   <location_type>APPROXIMATE</location_type>
   <viewport>
    <southwest>
     <lat>25.8200000</lat>
     <lng>-124.3900000</lng>
    </southwest>
    <northeast>
     <lat>49.3800000</lat>
     <lng>-66.9400000</lng>
    </northeast>
   </viewport>
   <bounds>
    <southwest>
     <lat>18.7763000</lat>
     <lng>170.5957000</lng>
    </southwest>
    <northeast>
     <lat>71.5388001</lat>
     <lng>-66.8854170</lng>
    </northeast>
   </bounds>
  </geometry>
  <place_id>ChIJCzYy5IS16lQRQrfeQ5K5Oxw</place_id>
 </result>
</GeocodeResponse>
