<?xml version="1.0" encoding="UTF-8"?>
<GeocodeResponse>
 <status>OK</status>
 <result>
  <type>street_address</type>
  <formatted_address>675 Nelson Rising Ln, San Francisco, CA 94158美國</formatted_address>
  <address_component>
   <long_name>675</long_name>
   <short_name>675</short_name>
   <type>street_number</type>
  </address_component>
  <address_component>
   <long_name>Nelson Rising Lane</long_name>
   <short_name>Nelson Rising Ln</short_name>
   <type>route</type>
  </address_component>
  <address_component>
   <long_name>South of Market</long_name>
   <short_name>South of Market</short_name>
   <type>neighborhood</type>
   <type>political</type>
  </address_component>
  <address_component>
   <long_name>San Francisco</long_name>
   <short_name>SF</short_name>
   <type>locality</type>
   <type>political</type>
  </address_component>
  <address_component>
   <long_name>San Francisco County</long_name>
   <short_name>San Francisco County</short_name>
   <type>administrative_area_level_2</type>
   <type>political</type>
  </address_component>
  <address_component>
   <long_name>California</long_name>
   <short_name>CA</short_name>
   <type>administrative_area_level_1</type>
   <type>political</type>
  </address_component>
  <address_component>
   <long_name>美國</long_name>
   <short_name>US</short_name>
   <type>country</type>
   <type>political</type>
  </address_component>
  <address_component>
   <long_name>94158</long_name>
   <short_name>94158</short_name>
   <type>postal_code</type>
  </address_component>
  <address_component>
   <long_name>0003</long_name>
   <short_name>0003</short_name>
   <type>postal_code_suffix</type>
  </address_component>
  <geometry>
   <location>
    <lat>37.7693494</lat>
    <lng>-122.3921981</lng>
   </location>
   <location_type>ROOFTOP</location_type>
   <viewport>
    <southwest>
     <lat>37.7680004</lat>
     <lng>-122.3935471</lng>
    </southwest>
    <northeast>
     <lat>37.7706984</lat>
     <lng>-122.3908491</lng>
    </northeast>
   </viewport>
  </geometry>
  <place_id>ChIJCSYmhs9_j4ARAIO2VPh0X-E</place_id>
 </result>
 <result>
  <type>neighborhood</type>
  <type>political</type>
  <formatted_address>Mission Bay, San Francisco, CA, 美國</formatted_address>
  <address_component>
   <long_name>Mission Bay</long_name>
   <short_name>Mission Bay</short_name>
   <type>neighborhood</type>
   <type>political</type>
  </address_component>
  <address_component>
   <long_name>San Francisco</long_name>
   <short_name>SF</short_name>
   <type>locality</type>
   <type>political</type>
  </address_component>
  <address_component>
   <long_name>San Francisco County</long_name>
   <short_name>San Francisco County</short_name>
   <type>administrative_area_level_2</type>
   <type>political</type>
  </address_component>
  <address_component>
   <long_name>California</long_name>
   <short_name>CA</short_name>
   <type>administrative_area_level_1</type>
   <type>political</type>
  </address_component>
  <address_component>
   <long_name>美國</long_name>
   <short_name>US</short_name>
   <type>country</type>
   <type>political</type>
  </address_component>
  <geometry>
   <location>
    <lat>37.7730963</lat>
    <lng>-122.3929225</lng>
   </location>
   <location_type>APPROXIMATE</location_type>
   <viewport>
    <southwest>
     <lat>37.7656442</lat>
     <lng>-122.4066840</lng>
    </southwest>
    <northeast>
     <lat>37.7819920</lat>
     <lng>-122.3814559</lng>
    </northeast>
   </viewport>
   <bounds>
    <southwest>
     <lat>37.7656442</lat>
     <lng>-122.4066840</lng>
    </southwest>
    <northeast>
     <lat>37.7819920</lat>
     <lng>-122.3814559</lng>
    </northeast>
   </bounds>
  </geometry>
  <place_id>ChIJB3qJC9F_j4ARsE8kZ77OBp8</place_id>
 </result>
 <result>
  <type>neighborhood</type>
  <type>political</type>
  <formatted_address>美國加利福尼亞州舊金山市場南</formatted_address>
  <address_component>
   <long_name>市場南</long_name>
   <short_name>市場南</short_name>
   <type>neighborhood</type>
   <type>political</type>
  </address_component>
  <address_component>
   <long_name>舊金山</long_name>
   <short_name>SF</short_name>
   <type>locality</type>
   <type>political</type>
  </address_component>
  <address_component>
   <long_name>舊金山</long_name>
   <short_name>舊金山</short_name>
   <type>administrative_area_level_2</type>
   <type>political</type>
  </address_component>
  <address_component>
   <long_name>加利福尼亞州</long_name>
   <short_name>CA</short_name>
   <type>administrative_area_level_1</type>
   <type>political</type>
  </address_component>
  <address_component>
   <long_name>美國</long_name>
   <short_name>US</short_name>
   <type>country</type>
   <type>political</type>
  </address_component>
  <geometry>
   <location>
    <lat>37.7785189</lat>
    <lng>-122.4056395</lng>
   </location>
   <location_type>APPROXIMATE</location_type>
   <viewport>
    <southwest>
     <lat>37.7659314</lat>
     <lng>-122.4233804</lng>
    </southwest>
    <northeast>
     <lat>37.7957000</lat>
     <lng>-122.3814559</lng>
    </northeast>
   </viewport>
   <bounds>
    <southwest>
     <lat>37.7659314</lat>
     <lng>-122.4233804</lng>
    </southwest>
    <northeast>
     <lat>37.7957000</lat>
     <lng>-122.3814559</lng>
    </northeast>
   </bounds>
  </geometry>
  <place_id>ChIJezBipoOAhYARUPnBLQwBmf0</place_id>
 </result>
 <result>
  <type>locality</type>
  <type>political</type>
  <formatted_address>美國加利福尼亞州舊金山</formatted_address>
  <address_component>
   <long_name>舊金山</long_name>
   <short_name>SF</short_name>
   <type>locality</type>
   <type>political</type>
  </address_component>
  <address_component>
   <long_name>舊金山</long_name>
   <short_name>舊金山</short_name>
   <type>administrative_area_level_2</type>
   <type>political</type>
  </address_component>
  <address_component>
   <long_name>加利福尼亞州</long_name>
   <short_name>CA</short_name>
   <type>administrative_area_level_1</type>
   <type>political</type>
  </address_component>
  <address_component>
   <long_name>美國</long_name>
   <short_name>US</short_name>
   <type>country</type>
   <type>political</type>
  </address_component>
  <geometry>
   <location>
    <lat>37.7749295</lat>
    <lng>-122.4194155</lng>
   </location>
   <location_type>APPROXIMATE</location_type>
   <viewport>
    <southwest>
     <lat>37.7034000</lat>
     <lng>-122.5270000</lng>
    </southwest>
    <northeast>
     <lat>37.8120000</lat>
     <lng>-122.3482000</lng>
    </northeast>
   </viewport>
   <bounds>
    <southwest>
     <lat>37.6931289</lat>
     <lng>-123.1660671</lng>
    </southwest>
    <northeast>
     <lat>37.9297708</lat>
     <lng>-122.3279149</lng>
    </northeast>
   </bounds>
  </geometry>
  <place_id>ChIJIQBpAG2ahYAR_6128GcTUEo</place_id>
 </result>
 <result>
  <type>postal_code</type>
  <formatted_address>美國加利福尼亞州舊金山邮政编码: 94158</formatted_address>
  <address_component>
   <long_name>94158</long_name>
   <short_name>94158</short_name>
   <type>postal_code</type>
  </address_component>
  <address_component>
   <long_name>舊金山</long_name>
   <short_name>SF</short_name>
   <type>locality</type>
   <type>political</type>
  </address_component>
  <address_component>
   <long_name>舊金山</long_name>
   <short_name>舊金山</short_name>
   <type>administrative_area_level_2</type>
   <type>political</type>
  </address_component>
  <address_component>
   <long_name>加利福尼亞州</long_name>
   <short_name>CA</short_name>
   <type>administrative_area_level_1</type>
   <type>political</type>
  </address_component>
  <address_component>
   <long_name>美國</long_name>
   <short_name>US</short_name>
   <type>country</type>
   <type>political</type>
  </address_component>
  <geometry>
   <location>
    <lat>37.7748363</lat>
    <lng>-122.3872576</lng>
   </location>
   <location_type>APPROXIMATE</location_type>
   <viewport>
    <southwest>
     <lat>37.7640839</lat>
     <lng>-122.4016570</lng>
    </southwest>
    <northeast>
     <lat>37.7835291</lat>
     <lng>-122.3796809</lng>
    </northeast>
   </viewport>
   <bounds>
    <southwest>
     <lat>37.7640839</lat>
     <lng>-122.4016570</lng>
    </southwest>
    <northeast>
     <lat>37.7835291</lat>
     <lng>-122.3796809</lng>
    </northeast>
   </bounds>
  </geometry>
  <place_id>ChIJTayi3tN_j4ARIwuQJy7-etE</place_id>
 </result>
 <result>
  <type>administrative_area_level_2</type>
  <type>political</type>
  <formatted_address>美國加利福尼亞州舊金山</formatted_address>
  <address_component>
   <long_name>舊金山</long_name>
   <short_name>舊金山</short_name>
   <type>administrative_area_level_2</type>
   <type>political</type>
  </address_component>
  <address_component>
   <long_name>加利福尼亞州</long_name>
   <short_name>CA</short_name>
   <type>administrative_area_level_1</type>
   <type>political</type>
  </address_component>
  <address_component>
   <long_name>美國</long_name>
   <short_name>US</short_name>
   <type>country</type>
   <type>political</type>
  </address_component>
  <geometry>
   <location>
    <lat>37.7749073</lat>
    <lng>-122.4193878</lng>
   </location>
   <location_type>APPROXIMATE</location_type>
   <viewport>
    <southwest>
     <lat>37.7080860</lat>
     <lng>-122.5177238</lng>
    </southwest>
    <northeast>
     <lat>37.8332485</lat>
     <lng>-122.3570190</lng>
    </northeast>
   </viewport>
   <bounds>
    <southwest>
     <lat>37.6931289</lat>
     <lng>-123.1660671</lng>
    </southwest>
    <northeast>
     <lat>37.9297708</lat>
     <lng>-122.3279149</lng>
    </northeast>
   </bounds>
  </geometry>
  <place_id>ChIJIQBpAG2ahYARUksNqd0_1h8</place_id>
 </result>
 <result>
  <type>political</type>
  <formatted_address>San Francisco-Oakland-Fremont, CA, CA, 美國</formatted_address>
  <address_component>
   <long_name>San Francisco-Oakland-Fremont, CA</long_name>
   <short_name>San Francisco-Oakland-Fremont, CA</short_name>
   <type>political</type>
  </address_component>
  <address_component>
   <long_name>California</long_name>
   <short_name>CA</short_name>
   <type>administrative_area_level_1</type>
   <type>political</type>
  </address_component>
  <address_component>
   <long_name>美國</long_name>
   <short_name>US</short_name>
   <type>country</type>
   <type>political</type>
  </address_component>
  <geometry>
   <location>
    <lat>37.8043507</lat>
    <lng>-121.8107079</lng>
   </location>
   <location_type>APPROXIMATE</location_type>
   <viewport>
    <southwest>
     <lat>37.1073458</lat>
     <lng>-123.0240660</lng>
    </southwest>
    <northeast>
     <lat>38.3209450</lat>
     <lng>-121.4692749</lng>
    </northeast>
   </viewport>
   <bounds>
    <southwest>
     <lat>37.1073458</lat>
     <lng>-123.0240660</lng>
    </southwest>
    <northeast>
     <lat>38.3209450</lat>
     <lng>-121.4692749</lng>
    </northeast>
   </bounds>
  </geometry>
  <place_id>ChIJGUN8-q6Ij4ARZ1tA_OojshE</place_id>
 </result>
 <result>
  <type>political</type>
  <formatted_address>San Francisco Metropolitan Area, CA, 美國</formatted_address>
  <address_component>
   <long_name>San Francisco Metropolitan Area</long_name>
   <short_name>San Francisco Metropolitan Area</short_name>
   <type>political</type>
  </address_component>
  <address_component>
   <long_name>California</long_name>
   <short_name>CA</short_name>
   <type>administrative_area_level_1</type>
   <type>political</type>
  </address_component>
  <address_component>
   <long_name>美國</long_name>
   <short_name>US</short_name>
   <type>country</type>
   <type>political</type>
  </address_component>
  <geometry>
   <location>
    <lat>37.7749274</lat>
    <lng>-122.4194254</lng>
   </location>
   <location_type>APPROXIMATE</location_type>
   <viewport>
    <southwest>
     <lat>37.0538579</lat>
     <lng>-123.1738250</lng>
    </southwest>
    <northeast>
     <lat>38.3209450</lat>
     <lng>-121.4692139</lng>
    </northeast>
   </viewport>
   <bounds>
    <southwest>
     <lat>37.0538579</lat>
     <lng>-123.1738250</lng>
    </southwest>
    <northeast>
     <lat>38.3209450</lat>
     <lng>-121.4692139</lng>
    </northeast>
   </bounds>
  </geometry>
  <place_id>ChIJE156BviCj4ARKrqKa5lkEu4</place_id>
 </result>
 <result>
  <type>administrative_area_level_1</type>
  <type>political</type>
  <formatted_address>美國加利福尼亞州</formatted_address>
  <address_component>
   <long_name>加利福尼亞州</long_name>
   <short_name>CA</short_name>
   <type>administrative_area_level_1</type>
   <type>political</type>
  </address_component>
  <address_component>
   <long_name>美國</long_name>
   <short_name>US</short_name>
   <type>country</type>
   <type>political</type>
  </address_component>
  <geometry>
   <location>
    <lat>36.7782610</lat>
    <lng>-119.4179324</lng>
   </location>
   <location_type>APPROXIMATE</location_type>
   <viewport>
    <southwest>
     <lat>32.5342622</lat>
     <lng>-124.4151650</lng>
    </southwest>
    <northeast>
     <lat>42.0095169</lat>
     <lng>-114.1313927</lng>
    </northeast>
   </viewport>
   <bounds>
    <southwest>
     <lat>32.5342622</lat>
     <lng>-124.4151650</lng>
    </southwest>
    <northeast>
     <lat>42.0095169</lat>
     <lng>-114.1313927</lng>
    </northeast>
   </bounds>
  </geometry>
  <place_id>ChIJPV4oX_65j4ARVW8IJ6IJUYs</place_id>
 </result>
 <result>
  <type>country</type>
  <type>political</type>
  <formatted_address>美國</formatted_address>
  <address_component>
   <long_name>美國</long_name>
   <short_name>US</short_name>
   <type>country</type>
   <type>political</type>
  </address_component>
  <geometry>
   <location>
    <lat>37.0902400</lat>
    <lng>-95.7128910</lng>
   </location>
   <location_type>APPROXIMATE</location_type>
   <viewport>
    <southwest>
     <lat>25.8200000</lat>
     <lng>-124.3900000</lng>
    </southwest>
    <northeast>
     <lat>49.3800000</lat>
     <lng>-66.9400000</lng>
    </northeast>
   </viewport>
   <bounds>
    <southwest>
     <lat>18.9106770</lat>
     <lng>172.4458955</lng>
    </southwest>
    <northeast>
     <lat>71.3867745</lat>
     <lng>-66.9502861</lng>
    </northeast>
   </bounds>
  </geometry>
  <place_id>ChIJCzYy5IS16lQRQrfeQ5K5Oxw</place_id>
 </result>
</GeocodeResponse>
