<?xml version="1.0" encoding="UTF-8"?>
<GeocodeResponse>
 <status>OK</status>
 <result>
  <type>street_address</type>
  <formatted_address>1001 W Cermak Rd, Chicago, IL 60608美國</formatted_address>
  <address_component>
   <long_name>1001</long_name>
   <short_name>1001</short_name>
   <type>street_number</type>
  </address_component>
  <address_component>
   <long_name>West Cermak Road</long_name>
   <short_name>W Cermak Rd</short_name>
   <type>route</type>
  </address_component>
  <address_component>
   <long_name>Lower West Side</long_name>
   <short_name>Lower West Side</short_name>
   <type>neighborhood</type>
   <type>political</type>
  </address_component>
  <address_component>
   <long_name>Chicago</long_name>
   <short_name>Chicago</short_name>
   <type>locality</type>
   <type>political</type>
  </address_component>
  <address_component>
   <long_name>Cook County</long_name>
   <short_name>Cook County</short_name>
   <type>administrative_area_level_2</type>
   <type>political</type>
  </address_component>
  <address_component>
   <long_name>Illinois</long_name>
   <short_name>IL</short_name>
   <type>administrative_area_level_1</type>
   <type>political</type>
  </address_component>
  <address_component>
   <long_name>美國</long_name>
   <short_name>US</short_name>
   <type>country</type>
   <type>political</type>
  </address_component>
  <address_component>
   <long_name>60608</long_name>
   <short_name>60608</short_name>
   <type>postal_code</type>
  </address_component>
  <geometry>
   <location>
    <lat>41.8506870</lat>
    <lng>-87.6500460</lng>
   </location>
   <location_type>ROOFTOP</location_type>
   <viewport>
    <southwest>
     <lat>41.8493380</lat>
     <lng>-87.6513950</lng>
    </southwest>
    <northeast>
     <lat>41.8520360</lat>
     <lng>-87.6486970</lng>
    </northeast>
   </viewport>
  </geometry>
  <place_id>ChIJR8wOzlAsDogRWEsrf-_aHOQ</place_id>
 </result>
 <result>
  <type>neighborhood</type>
  <type>political</type>
  <formatted_address>Lower West Side, Chicago, IL, 美國</formatted_address>
  <address_component>
   <long_name>Lower West Side</long_name>
   <short_name>Lower West Side</short_name>
   <type>neighborhood</type>
   <type>political</type>
  </address_component>
  <address_component>
   <long_name>Chicago</long_name>
   <short_name>Chicago</short_name>
   <type>locality</type>
   <type>political</type>
  </address_component>
  <address_component>
   <long_name>Cook County</long_name>
   <short_name>Cook County</short_name>
   <type>administrative_area_level_2</type>
   <type>political</type>
  </address_component>
  <address_component>
   <long_name>Illinois</long_name>
   <short_name>IL</short_name>
   <type>administrative_area_level_1</type>
   <type>political</type>
  </address_component>
  <address_component>
   <long_name>美國</long_name>
   <short_name>US</short_name>
   <type>country</type>
   <type>political</type>
  </address_component>
  <geometry>
   <location>
    <lat>41.8489220</lat>
    <lng>-87.6695189</lng>
   </location>
   <location_type>APPROXIMATE</location_type>
   <viewport>
    <southwest>
     <lat>41.8348009</lat>
     <lng>-87.6880731</lng>
    </southwest>
    <northeast>
     <lat>41.8600209</lat>
     <lng>-87.6351581</lng>
    </northeast>
   </viewport>
   <bounds>
    <southwest>
     <lat>41.8348009</lat>
     <lng>-87.6880731</lng>
    </southwest>
    <northeast>
     <lat>41.8600209</lat>
     <lng>-87.6351581</lng>
    </northeast>
   </bounds>
  </geometry>
  <place_id>ChIJE72gu60tDogR4mxN4cOQB2A</place_id>
 </result>
 <result>
  <type>neighborhood</type>
  <type>political</type>
  <formatted_address>Lower West Side, Chicago, IL, 美國</formatted_address>
  <address_component>
   <long_name>Lower West Side</long_name>
   <short_name>Lower West Side</short_name>
   <type>neighborhood</type>
   <type>political</type>
  </address_component>
  <address_component>
   <long_name>Chicago</long_name>
   <short_name>Chicago</short_name>
   <type>locality</type>
   <type>political</type>
  </address_component>
  <address_component>
   <long_name>Cook County</long_name>
   <short_name>Cook County</short_name>
   <type>administrative_area_level_2</type>
   <type>political</type>
  </address_component>
  <address_component>
   <long_name>Illinois</long_name>
   <short_name>IL</short_name>
   <type>administrative_area_level_1</type>
   <type>political</type>
  </address_component>
  <address_component>
   <long_name>美國</long_name>
   <short_name>US</short_name>
   <type>country</type>
   <type>political</type>
  </address_component>
  <geometry>
   <location>
    <lat>41.8489265</lat>
    <lng>-87.6694729</lng>
   </location>
   <location_type>APPROXIMATE</location_type>
   <viewport>
    <southwest>
     <lat>41.8348009</lat>
     <lng>-87.6880731</lng>
    </southwest>
    <northeast>
     <lat>41.8600180</lat>
     <lng>-87.6351581</lng>
    </northeast>
   </viewport>
   <bounds>
    <southwest>
     <lat>41.8348009</lat>
     <lng>-87.6880731</lng>
    </southwest>
    <northeast>
     <lat>41.8600180</lat>
     <lng>-87.6351581</lng>
    </northeast>
   </bounds>
  </geometry>
  <place_id>ChIJb_CDoKUtDogR3xXeY6D1LNk</place_id>
 </result>
 <result>
  <type>locality</type>
  <type>political</type>
  <formatted_address>美國伊利諾伊州芝加哥</formatted_address>
  <address_component>
   <long_name>芝加哥</long_name>
   <short_name>芝加哥</short_name>
   <type>locality</type>
   <type>political</type>
  </address_component>
  <address_component>
   <long_name>庫克縣</long_name>
   <short_name>庫克縣</short_name>
   <type>administrative_area_level_2</type>
   <type>political</type>
  </address_component>
  <address_component>
   <long_name>伊利諾伊州</long_name>
   <short_name>IL</short_name>
   <type>administrative_area_level_1</type>
   <type>political</type>
  </address_component>
  <address_component>
   <long_name>美國</long_name>
   <short_name>US</short_name>
   <type>country</type>
   <type>political</type>
  </address_component>
  <geometry>
   <location>
    <lat>41.8781136</lat>
    <lng>-87.6297982</lng>
   </location>
   <location_type>APPROXIMATE</location_type>
   <viewport>
    <southwest>
     <lat>41.6443350</lat>
     <lng>-87.9402670</lng>
    </southwest>
    <northeast>
     <lat>42.0231311</lat>
     <lng>-87.5240440</lng>
    </northeast>
   </viewport>
   <bounds>
    <southwest>
     <lat>41.6443350</lat>
     <lng>-87.9402670</lng>
    </southwest>
    <northeast>
     <lat>42.0231311</lat>
     <lng>-87.5240440</lng>
    </northeast>
   </bounds>
  </geometry>
  <place_id>ChIJ7cv00DwsDogRAMDACa2m4K8</place_id>
 </result>
 <result>
  <type>postal_code</type>
  <formatted_address>美國伊利諾伊州芝加哥邮政编码: 60696</formatted_address>
  <address_component>
   <long_name>60696</long_name>
   <short_name>60696</short_name>
   <type>postal_code</type>
  </address_component>
  <address_component>
   <long_name>Lower West Side</long_name>
   <short_name>Lower West Side</short_name>
   <type>neighborhood</type>
   <type>political</type>
  </address_component>
  <address_component>
   <long_name>Chicago</long_name>
   <short_name>Chicago</short_name>
   <type>locality</type>
   <type>political</type>
  </address_component>
  <address_component>
   <long_name>Cook County</long_name>
   <short_name>Cook County</short_name>
   <type>administrative_area_level_2</type>
   <type>political</type>
  </address_component>
  <address_component>
   <long_name>Illinois</long_name>
   <short_name>IL</short_name>
   <type>administrative_area_level_1</type>
   <type>political</type>
  </address_component>
  <address_component>
   <long_name>美國</long_name>
   <short_name>US</short_name>
   <type>country</type>
   <type>political</type>
  </address_component>
  <geometry>
   <location>
    <lat>41.8500000</lat>
    <lng>-87.6500000</lng>
   </location>
   <location_type>APPROXIMATE</location_type>
   <viewport>
    <southwest>
     <lat>41.8486510</lat>
     <lng>-87.6513490</lng>
    </southwest>
    <northeast>
     <lat>41.8513490</lat>
     <lng>-87.6486510</lng>
    </northeast>
   </viewport>
  </geometry>
  <place_id>ChIJ7SGcxFAsDogRLNgL0azHbUo</place_id>
 </result>
 <result>
  <type>postal_code</type>
  <formatted_address>美國伊利諾伊州芝加哥邮政编码: 60290</formatted_address>
  <address_component>
   <long_name>60290</long_name>
   <short_name>60290</short_name>
   <type>postal_code</type>
  </address_component>
  <address_component>
   <long_name>Lower West Side</long_name>
   <short_name>Lower West Side</short_name>
   <type>neighborhood</type>
   <type>political</type>
  </address_component>
  <address_component>
   <long_name>Chicago</long_name>
   <short_name>Chicago</short_name>
   <type>locality</type>
   <type>political</type>
  </address_component>
  <address_component>
   <long_name>Cook County</long_name>
   <short_name>Cook County</short_name>
   <type>administrative_area_level_2</type>
   <type>political</type>
  </address_component>
  <address_component>
   <long_name>Illinois</long_name>
   <short_name>IL</short_name>
   <type>administrative_area_level_1</type>
   <type>political</type>
  </address_component>
  <address_component>
   <long_name>美國</long_name>
   <short_name>US</short_name>
   <type>country</type>
   <type>political</type>
  </address_component>
  <geometry>
   <location>
    <lat>41.8500000</lat>
    <lng>-87.6500000</lng>
   </location>
   <location_type>APPROXIMATE</location_type>
   <viewport>
    <southwest>
     <lat>41.8486510</lat>
     <lng>-87.6513490</lng>
    </southwest>
    <northeast>
     <lat>41.8513490</lat>
     <lng>-87.6486510</lng>
    </northeast>
   </viewport>
  </geometry>
  <place_id>ChIJbXwTw1AsDogRb3cXtBPAQ_U</place_id>
 </result>
 <result>
  <type>postal_code</type>
  <formatted_address>美國伊利諾伊州芝加哥邮政编码: 60695</formatted_address>
  <address_component>
   <long_name>60695</long_name>
   <short_name>60695</short_name>
   <type>postal_code</type>
  </address_component>
  <address_component>
   <long_name>Lower West Side</long_name>
   <short_name>Lower West Side</short_name>
   <type>neighborhood</type>
   <type>political</type>
  </address_component>
  <address_component>
   <long_name>Chicago</long_name>
   <short_name>Chicago</short_name>
   <type>locality</type>
   <type>political</type>
  </address_component>
  <address_component>
   <long_name>Cook County</long_name>
   <short_name>Cook County</short_name>
   <type>administrative_area_level_2</type>
   <type>political</type>
  </address_component>
  <address_component>
   <long_name>Illinois</long_name>
   <short_name>IL</short_name>
   <type>administrative_area_level_1</type>
   <type>political</type>
  </address_component>
  <address_component>
   <long_name>美國</long_name>
   <short_name>US</short_name>
   <type>country</type>
   <type>political</type>
  </address_component>
  <geometry>
   <location>
    <lat>41.8500000</lat>
    <lng>-87.6500000</lng>
   </location>
   <location_type>APPROXIMATE</location_type>
   <viewport>
    <southwest>
     <lat>41.8486510</lat>
     <lng>-87.6513490</lng>
    </southwest>
    <northeast>
     <lat>41.8513490</lat>
     <lng>-87.6486510</lng>
    </northeast>
   </viewport>
  </geometry>
  <place_id>ChIJbXwTw1AsDogRDEdQBwqopvo</place_id>
 </result>
 <result>
  <type>postal_code</type>
  <formatted_address>美國伊利諾伊州芝加哥邮政编码: 60664</formatted_address>
  <address_component>
   <long_name>60664</long_name>
   <short_name>60664</short_name>
   <type>postal_code</type>
  </address_component>
  <address_component>
   <long_name>Lower West Side</long_name>
   <short_name>Lower West Side</short_name>
   <type>neighborhood</type>
   <type>political</type>
  </address_component>
  <address_component>
   <long_name>Chicago</long_name>
   <short_name>Chicago</short_name>
   <type>locality</type>
   <type>political</type>
  </address_component>
  <address_component>
   <long_name>Cook County</long_name>
   <short_name>Cook County</short_name>
   <type>administrative_area_level_2</type>
   <type>political</type>
  </address_component>
  <address_component>
   <long_name>Illinois</long_name>
   <short_name>IL</short_name>
   <type>administrative_area_level_1</type>
   <type>political</type>
  </address_component>
  <address_component>
   <long_name>美國</long_name>
   <short_name>US</short_name>
   <type>country</type>
   <type>political</type>
  </address_component>
  <geometry>
   <location>
    <lat>41.8500000</lat>
    <lng>-87.6500000</lng>
   </location>
   <location_type>APPROXIMATE</location_type>
   <viewport>
    <southwest>
     <lat>41.8486510</lat>
     <lng>-87.6513490</lng>
    </southwest>
    <northeast>
     <lat>41.8513490</lat>
     <lng>-87.6486510</lng>
    </northeast>
   </viewport>
  </geometry>
  <place_id>ChIJ7SGcxFAsDogRpQDxnBA1ShE</place_id>
 </result>
 <result>
  <type>postal_code</type>
  <formatted_address>美國伊利諾伊州芝加哥邮政编码: 60686</formatted_address>
  <address_component>
   <long_name>60686</long_name>
   <short_name>60686</short_name>
   <type>postal_code</type>
  </address_component>
  <address_component>
   <long_name>Lower West Side</long_name>
   <short_name>Lower West Side</short_name>
   <type>neighborhood</type>
   <type>political</type>
  </address_component>
  <address_component>
   <long_name>Chicago</long_name>
   <short_name>Chicago</short_name>
   <type>locality</type>
   <type>political</type>
  </address_component>
  <address_component>
   <long_name>Cook County</long_name>
   <short_name>Cook County</short_name>
   <type>administrative_area_level_2</type>
   <type>political</type>
  </address_component>
  <address_component>
   <long_name>Illinois</long_name>
   <short_name>IL</short_name>
   <type>administrative_area_level_1</type>
   <type>political</type>
  </address_component>
  <address_component>
   <long_name>美國</long_name>
   <short_name>US</short_name>
   <type>country</type>
   <type>political</type>
  </address_component>
  <geometry>
   <location>
    <lat>41.8499561</lat>
    <lng>-87.6500420</lng>
   </location>
   <location_type>APPROXIMATE</location_type>
   <viewport>
    <southwest>
     <lat>41.8486071</lat>
     <lng>-87.6513910</lng>
    </southwest>
    <northeast>
     <lat>41.8513051</lat>
     <lng>-87.6486930</lng>
    </northeast>
   </viewport>
  </geometry>
  <place_id>ChIJ7SGcxFAsDogR5cEINy6zJT0</place_id>
 </result>
 <result>
  <type>postal_code</type>
  <formatted_address>美國伊利諾伊州芝加哥邮政编码: 60608</formatted_address>
  <address_component>
   <long_name>60608</long_name>
   <short_name>60608</short_name>
   <type>postal_code</type>
  </address_component>
  <address_component>
   <long_name>芝加哥</long_name>
   <short_name>芝加哥</short_name>
   <type>locality</type>
   <type>political</type>
  </address_component>
  <address_component>
   <long_name>庫克縣</long_name>
   <short_name>庫克縣</short_name>
   <type>administrative_area_level_2</type>
   <type>political</type>
  </address_component>
  <address_component>
   <long_name>伊利諾伊州</long_name>
   <short_name>IL</short_name>
   <type>administrative_area_level_1</type>
   <type>political</type>
  </address_component>
  <address_component>
   <long_name>美國</long_name>
   <short_name>US</short_name>
   <type>country</type>
   <type>political</type>
  </address_component>
  <geometry>
   <location>
    <lat>41.8492122</lat>
    <lng>-87.6713199</lng>
   </location>
   <location_type>APPROXIMATE</location_type>
   <viewport>
    <southwest>
     <lat>41.8300709</lat>
     <lng>-87.7030451</lng>
    </southwest>
    <northeast>
     <lat>41.8695479</lat>
     <lng>-87.6418760</lng>
    </northeast>
   </viewport>
   <bounds>
    <southwest>
     <lat>41.8300709</lat>
     <lng>-87.7030451</lng>
    </southwest>
    <northeast>
     <lat>41.8695479</lat>
     <lng>-87.6418760</lng>
    </northeast>
   </bounds>
  </geometry>
  <place_id>ChIJQQohhKQtDogRwlwyFUD0lcs</place_id>
 </result>
 <result>
  <type>administrative_area_level_2</type>
  <type>political</type>
  <formatted_address>美國伊利諾伊州庫克縣</formatted_address>
  <address_component>
   <long_name>庫克縣</long_name>
   <short_name>庫克縣</short_name>
   <type>administrative_area_level_2</type>
   <type>political</type>
  </address_component>
  <address_component>
   <long_name>伊利諾伊州</long_name>
   <short_name>IL</short_name>
   <type>administrative_area_level_1</type>
   <type>political</type>
  </address_component>
  <address_component>
   <long_name>美國</long_name>
   <short_name>US</short_name>
   <type>country</type>
   <type>political</type>
  </address_component>
  <geometry>
   <location>
    <lat>41.7376587</lat>
    <lng>-87.6975540</lng>
   </location>
   <location_type>APPROXIMATE</location_type>
   <viewport>
    <southwest>
     <lat>41.4695339</lat>
     <lng>-88.2634779</lng>
    </southwest>
    <northeast>
     <lat>42.1543240</lat>
     <lng>-87.5240440</lng>
    </northeast>
   </viewport>
   <bounds>
    <southwest>
     <lat>41.4695339</lat>
     <lng>-88.2634779</lng>
    </southwest>
    <northeast>
     <lat>42.1543240</lat>
     <lng>-87.5240440</lng>
    </northeast>
   </bounds>
  </geometry>
  <place_id>ChIJdRNDZqqxD4gRPOAOIwnX2Yo</place_id>
 </result>
 <result>
  <type>political</type>
  <formatted_address>美國芝加哥大都市區</formatted_address>
  <address_component>
   <long_name>芝加哥大都市區</long_name>
   <short_name>芝加哥大都市區</short_name>
   <type>political</type>
  </address_component>
  <address_component>
   <long_name>美國</long_name>
   <short_name>US</short_name>
   <type>country</type>
   <type>political</type>
  </address_component>
  <geometry>
   <location>
    <lat>41.7435073</lat>
    <lng>-88.0118473</lng>
   </location>
   <location_type>APPROXIMATE</location_type>
   <viewport>
    <southwest>
     <lat>40.7364641</lat>
     <lng>-88.9422920</lng>
    </southwest>
    <northeast>
     <lat>42.6701230</lat>
     <lng>-86.9292570</lng>
    </northeast>
   </viewport>
   <bounds>
    <southwest>
     <lat>40.7364641</lat>
     <lng>-88.9422920</lng>
    </southwest>
    <northeast>
     <lat>42.6701230</lat>
     <lng>-86.9292570</lng>
    </northeast>
   </bounds>
  </geometry>
  <place_id>ChIJg-CZjExEDogRNJNXmgqEe9o</place_id>
 </result>
 <result>
  <type>political</type>
  <formatted_address>Chicago Metropolitan Area, 美國</formatted_address>
  <address_component>
   <long_name>Chicago Metropolitan Area</long_name>
   <short_name>Chicago Metropolitan Area</short_name>
   <type>political</type>
  </address_component>
  <address_component>
   <long_name>美國</long_name>
   <short_name>US</short_name>
   <type>country</type>
   <type>political</type>
  </address_component>
  <geometry>
   <location>
    <lat>42.2162567</lat>
    <lng>-87.8549755</lng>
   </location>
   <location_type>APPROXIMATE</location_type>
   <viewport>
    <southwest>
     <lat>40.7364641</lat>
     <lng>-88.9421450</lng>
    </southwest>
    <northeast>
     <lat>42.6698750</lat>
     <lng>-86.9292568</lng>
    </northeast>
   </viewport>
   <bounds>
    <southwest>
     <lat>40.7364641</lat>
     <lng>-88.9421450</lng>
    </southwest>
    <northeast>
     <lat>42.6698750</lat>
     <lng>-86.9292568</lng>
    </northeast>
   </bounds>
  </geometry>
  <place_id>ChIJnbOSJtVFDogRes-6C8iBA2s</place_id>
 </result>
 <result>
  <type>administrative_area_level_1</type>
  <type>political</type>
  <formatted_address>美國伊利諾伊州</formatted_address>
  <address_component>
   <long_name>伊利諾伊州</long_name>
   <short_name>IL</short_name>
   <type>administrative_area_level_1</type>
   <type>political</type>
  </address_component>
  <address_component>
   <long_name>美國</long_name>
   <short_name>US</short_name>
   <type>country</type>
   <type>political</type>
  </address_component>
  <geometry>
   <location>
    <lat>40.6331249</lat>
    <lng>-89.3985283</lng>
   </location>
   <location_type>APPROXIMATE</location_type>
   <viewport>
    <southwest>
     <lat>36.9702981</lat>
     <lng>-91.5130789</lng>
    </southwest>
    <northeast>
     <lat>42.5083380</lat>
     <lng>-87.4951991</lng>
    </northeast>
   </viewport>
   <bounds>
    <southwest>
     <lat>36.9702981</lat>
     <lng>-91.5130789</lng>
    </southwest>
    <northeast>
     <lat>42.5083380</lat>
     <lng>-87.4951991</lng>
    </northeast>
   </bounds>
  </geometry>
  <place_id>ChIJGSZubzgtC4gRVlkRZFCCFX8</place_id>
 </result>
 <result>
  <type>country</type>
  <type>political</type>
  <formatted_address>美國</formatted_address>
  <address_component>
   <long_name>美國</long_name>
   <short_name>US</short_name>
   <type>country</type>
   <type>political</type>
  </address_component>
  <geometry>
   <location>
    <lat>37.0902400</lat>
    <lng>-95.7128910</lng>
   </location>
   <location_type>APPROXIMATE</location_type>
   <viewport>
    <southwest>
     <lat>25.8200000</lat>
     <lng>-124.3900000</lng>
    </southwest>
    <northeast>
     <lat>49.3800000</lat>
     <lng>-66.9400000</lng>
    </northeast>
   </viewport>
   <bounds>
    <southwest>
     <lat>18.9106770</lat>
     <lng>172.4458955</lng>
    </southwest>
    <northeast>
     <lat>71.3867745</lat>
     <lng>-66.9502861</lng>
    </northeast>
   </bounds>
  </geometry>
  <place_id>ChIJCzYy5IS16lQRQrfeQ5K5Oxw</place_id>
 </result>
</GeocodeResponse>
